City_ID,City,Country,Max Temp,Current Description,Lat,Lng,Hotel Name
0,Cape Town,ZA,69.01,few clouds,-33.9258,18.4232,"Radisson Blu Hotel Waterfront, Cape Town"
1,Hasaki,JP,50.0,few clouds,35.7333,140.8333,Inubosaki Kanko Hotel
2,Airai,TL,62.47,overcast clouds,-8.9266,125.4092,Juvinal Martin
3,Lebu,CL,57.83,clear sky,-37.6167,-73.65,Hostal Las Lilas
4,Lincoln,US,45.0,clear sky,40.8,-96.667,Courtyard by Marriott Lincoln Downtown/Haymarket
5,New Norfolk,AU,73.0,few clouds,-42.7826,147.0587,The Shingles Riverside Cottages
6,Port Elizabeth,ZA,68.0,clear sky,-33.918,25.5701,39 On Nile Guest House
7,Ushuaia,AR,51.8,broken clouds,-54.8,-68.3,Albatros Hotel
8,College,US,-5.8,light snow,64.8569,-147.8028,Pike's Waterfront Lodge
9,Bethel,US,30.2,overcast clouds,41.3712,-73.414,Courtyard by Marriott Danbury
10,Bluff,NZ,56.95,clear sky,-46.6,168.3333,Bluff Homestead - Guesthouse & Campervan Park
11,Bengkulu,ID,82.53,overcast clouds,-3.8004,102.2655,Grage Hotel Bengkulu
13,Avarua,CK,84.2,light rain,-21.2078,-159.775,Paradise Inn
14,Butaritari,KI,81.52,light rain,3.0707,172.7902,Isles Sunset Lodge
16,Sitka,US,37.4,light rain,57.0531,-135.33,Westmark Sitka
18,Pangnirtung,CA,-12.48,broken clouds,66.1451,-65.7125,Kilabuk Lodge
19,Plerin,FR,45.0,overcast clouds,48.5425,-2.7798,Hotel Ker Izel
20,Upernavik,GL,-15.52,clear sky,72.7868,-56.1549,Gina's Guesthouse - Upernavik
21,Nayoro,JP,14.45,light snow,44.3506,142.4578,大雪荘
22,Anadyr,RU,-2.2,snow,64.75,177.4833,"Гостиница ""Анадырь"""
23,Klaksvik,FO,32.0,scattered clouds,62.2266,-6.5889999999999995,Airbnb rooms
24,Georgetown,MY,82.4,few clouds,5.4112,100.3354,Cititel Penang
25,Punta Arenas,CL,59.0,clear sky,-53.15,-70.9167,Hotel Dreams Del Estrecho
26,Esperance,AU,64.4,overcast clouds,-33.8667,121.9,Hospitality Esperance
27,Talnakh,RU,-20.4,overcast clouds,69.4865,88.3972,Talnakh Hotel
28,Hobart,AU,73.0,few clouds,-42.8794,147.3294,St Ives Hobart Accommodation Tasmania
29,Torbay,CA,48.2,mist,47.6666,-52.7314,Gallows Cove
30,Sibolga,ID,81.91,few clouds,1.7427,98.7792,Hotel Syariah CN Darussalam
31,Hilo,US,78.8,broken clouds,19.7297,-155.09,Hilo Hawaiian Hotel
32,Busselton,AU,66.99,clear sky,-33.65,115.3333,Observatory Guest House
33,Nome,US,-4.0,clear sky,64.5011,-165.4064,Dredge 7 Inn
34,Bud,US,28.0,clear sky,39.446999999999996,-86.1758,Ted McQuinn Trust
35,Cherskiy,RU,5.7,scattered clouds,68.75,161.3,Gostinitsa
36,Ilulissat,GL,-5.8,clear sky,69.2167,-51.1,Hotel Arctic
38,Haukipudas,FI,14.0,light snow,65.1765,25.3523,Best Western Hotel Samantta
39,Hobyo,SO,75.58,scattered clouds,5.3505,48.5268,Halane Hotel and Restaurent
40,Saint-Pierre,RE,75.99,clear sky,-21.3393,55.4781,Lindsey Hôtel
41,Satipo,PE,71.29,overcast clouds,-11.2522,-74.6386,Hotel Mayros
42,Yellowknife,CA,-18.0,light snow,62.456,-114.3525,The Explorer Hotel
43,Port Keats,AU,89.06,overcast clouds,-14.25,129.55,TDC Village (Hundred Man Camp)
44,Trinidad,BO,75.43,broken clouds,-14.8333,-64.9,Hotel Piesta
46,Saint-Francois,FR,39.99,clear sky,46.4154,3.9054,Manoir Du Bonheur
47,Moyale,KE,65.98,clear sky,3.5167,39.0584,La Tahzan Guest House
48,Arraial Do Cabo,BR,76.64,clear sky,-22.9661,-42.0278,Pousada Porto Praia
49,East London,ZA,72.81,scattered clouds,-33.0153,27.9116,Tu Casa
50,Khatanga,RU,-17.68,few clouds,71.9667,102.5,"Gostinitsa ""Zapolyar'ye"""
51,Hamilton,US,27.0,clear sky,39.1834,-84.5333,Six Acres Bed & Breakfast
52,Flinders,AU,84.0,clear sky,-34.5833,150.8552,Shellharbour Resort & Conference Centre
54,Albanel,CA,30.2,overcast clouds,48.8832,-72.4487,Camping municipal d'Albanel
55,Jamestown,US,21.99,clear sky,42.097,-79.2353,Hampton Inn & Suites Jamestown
56,Boqueirao,BR,71.6,broken clouds,-7.5,-36.1333,Hotel Chique Chique
57,Atuona,PF,78.17,clear sky,-9.8,-139.0333,Villa Enata
58,Jumla,NP,32.36,clear sky,29.2747,82.1838,"अन्नी घर, जुम्ला - Anni Ghar"
60,Salalah,OM,64.4,clear sky,17.0151,54.0924,HAMDAN PLAZA HOTEL SALALAH
61,Manama,BH,62.6,clear sky,26.2154,50.5832,Al Safir Hotel & Tower
63,Iqaluit,CA,-4.0,light snow,63.7506,-68.5145,Frobisher Inn
64,Nanortalik,GL,15.67,broken clouds,60.1432,-45.2371,Hotel Kap Farvel
65,Clyde River,CA,-18.4,light snow,70.4692,-68.5914,Qamaq Hotel
66,Lebanon,US,37.0,clear sky,36.2081,-86.2911,Hampton Inn & Suites Lebanon
67,Iseyin,NG,74.57,clear sky,7.9667,3.6,"NYSC Permanent Orientation Camp, Iseyin, Oyo State"
68,Nikolskoye,RU,16.0,snow,59.7035,30.7861,Tourist House - Sablino
69,Darnah,LY,57.74,clear sky,32.766999999999996,22.6367,فندق الفردوس
70,Ferrol,ES,52.0,scattered clouds,43.4832,-8.2369,Carrís Almirante
71,North Bend,US,46.4,clear sky,43.4065,-124.2243,Red Lion Hotel Coos Bay
72,Port Alfred,ZA,69.01,scattered clouds,-33.5906,26.891,The Halyards Hotel
73,Mataura,NZ,65.77,clear sky,-46.1927,168.8643,Ellie's Villa
74,Qaanaaq,GL,-22.02,clear sky,77.484,-69.3632,Qaanaaq Hotel
76,Port Moresby,PG,89.6,few clouds,-9.4431,147.1797,Lamana Hotel
77,Pemangkat,ID,80.62,broken clouds,1.1667,108.9667,Kost H.Syamsuddin
78,Bredasdorp,ZA,62.6,overcast clouds,-34.5322,20.0403,Bredasdorp Country Manor
79,The Valley,AI,80.6,few clouds,18.217,-63.0578,CeBlue Villas & Beach Resort
80,Pevek,RU,-7.37,clear sky,69.7008,170.3133,Severnoye Zoloto
81,Vaini,TO,84.2,moderate rain,-21.2,-175.2,Keleti Beach Resort
82,Vila Franca Do Campo,PT,51.8,scattered clouds,37.7167,-25.4333,Pestana Bahia Praia
84,Kapaa,US,75.2,few clouds,22.0752,-159.319,Sheraton Kauai Resort at Coconut Beach
85,Souillac,MU,77.0,light rain,-20.5167,57.5167,Shanti Maurice Resort & Spa
86,Barrow,US,-25.6,haze,71.2906,-156.7887,King Eider Inn
88,Ushibuka,JP,54.64,overcast clouds,32.1906,130.0228,Hotei
89,Ajdabiya,LY,56.84,clear sky,30.7554,20.2263,Almadina Hotel
90,Beyneu,KZ,38.1,overcast clouds,45.3167,55.2,NUR
91,Kishtwar,IN,36.46,light rain,33.3167,75.7667,Heritage Bagh by Himalayan Musk
92,Faenza,IT,48.0,fog,44.2857,11.8833,Hotel Vittoria
93,Rikitea,PF,77.49,light rain,-23.1203,-134.9692,Pension Maro'i
94,Half Moon Bay,US,52.0,scattered clouds,37.4636,-122.4286,"The Ritz-Carlton, Half Moon Bay"
95,Kodiak,US,30.2,clear sky,57.79,-152.4072,Best Western Kodiak Inn And Convention Center
96,Uaua,BR,75.51,broken clouds,-9.8414,-39.4817,Hotel Uauá
97,Namibe,AO,70.47,broken clouds,-15.1961,12.1522,Hotel Chik Chik Namibe
98,Mazagao,BR,80.6,few clouds,-0.115,-51.2894,Recanto dos Ferreiras
99,Lata,PT,53.01,overcast clouds,40.1629,-8.3327,Casa Maquia
100,Fairview,US,32.0,overcast clouds,40.8126,-73.999,Homewood Suites by Hilton Edgewater-NYC Area
101,Vanimo,PG,78.91,overcast clouds,-2.6741,141.3028,Vahmoneh Lodge Vanimo
102,Mozarlandia,BR,76.64,overcast clouds,-14.7447,-50.5706,Hotel Santa Mônica
103,Vaitape,PF,81.55,moderate rain,-16.5167,-151.75,Conrad Bora Bora Nui
104,Mahebourg,MU,77.0,moderate rain,-20.4081,57.7,Shandrani Beachcomber Resort & Spa
107,Thompson,CA,-2.2,snow,55.7435,-97.8558,Burntwood Hotel
108,Faanui,PF,80.17,heavy intensity rain,-16.4833,-151.75,Bora-Bora Pearl Beach Resort & Spa
109,Carnarvon,AU,82.4,overcast clouds,-24.8667,113.6333,Hospitality Carnarvon
110,Cabedelo,BR,77.0,clear sky,-6.9811,-34.8339,Hotel Pigalle
111,Vytegra,RU,15.19,snow,61.0064,36.4481,Wardenclyffe Volgo&Balt
112,Rawson,AR,72.18,few clouds,-43.3002,-65.1023,Hosteria Sampedro
113,Fortuna,US,46.99,clear sky,40.5982,-124.1573,Super 8 by Wyndham Fortuna
114,Morwell,AU,82.0,overcast clouds,-38.2333,146.4,Morwell Motel
115,Dingle,PH,80.69,light rain,10.9995,122.6711,SEGAYA PROPERTY
117,Faya,SA,55.4,clear sky,18.3851,42.4509,مقبرة ال مجمل
118,Saint-Philippe,RE,75.99,clear sky,-21.3585,55.7679,"Chambres d'hôte ""La Trinité"""
119,Antofagasta,CL,64.4,clear sky,-23.65,-70.4,Holiday Inn Express Antofagasta
120,Severo-Kurilsk,RU,11.48,light snow,50.6789,156.125,Kak Doma
121,Puerto Ayora,EC,75.99,few clouds,-0.7393,-90.3518,Castillo Galapagos
123,Ponta Do Sol,PT,53.01,scattered clouds,32.6667,-17.1,Hotel do Campo
124,Vermillion,US,39.99,scattered clouds,42.7794,-96.9292,Holiday Inn Express & Suites Vermillion
125,Kijang,KR,42.8,clear sky,35.2442,129.2139,Samyang Beach Villa
126,Mitsamiouli,KM,82.31,scattered clouds,-11.3847,43.2844,Foyer ADM
127,Dunedin,NZ,54.0,clear sky,-45.8742,170.5036,Scenic Hotel Southern Cross
128,Brae,GB,33.8,few clouds,60.3964,-1.3530000000000002,Busta House Hotel
129,Banda Aceh,ID,80.6,clear sky,5.5577,95.3222,OYO 884 Rumoh PMI Hotel
130,Coahuayana,MX,75.2,scattered clouds,18.7333,-103.6833,Hotel Los Arcos
132,Napasar,IN,60.75,overcast clouds,27.9667,73.55,Laxmi Palace
133,Raudeberg,NO,23.0,clear sky,61.9875,5.1352,Nordre Silda.
134,Khandyga,RU,-46.91,few clouds,62.6667,135.6,Apel'sin
135,Kruisfontein,ZA,66.99,scattered clouds,-34.0033,24.7314,Oyster Bay House Rental
137,Alice Springs,AU,98.6,clear sky,-23.7,133.8833,Desert Palms Alice Springs
138,Tuktoyaktuk,CA,-41.8,clear sky,69.4541,-133.0374,End of The Road Ltd.
139,Los Llanos De Aridane,ES,62.6,overcast clouds,28.6585,-17.9182,Valle Aridane
140,Saint George,US,55.4,clear sky,37.1041,-113.5841,Best Western Plus Abbey Inn
141,Nanchang,CN,57.42,broken clouds,28.6833,115.8833,Ruidu Hotel
142,Canico,PT,57.2,scattered clouds,32.6333,-16.85,Quinta Splendida Wellness & Botanical Garden
143,Mutoko,ZW,64.0,light rain,-17.397000000000002,32.2268,Mutoko Hotel
144,Bam,IR,43.81,clear sky,29.105999999999998,58.357,Bam Tourist Hotel
145,Kaitangata,NZ,57.0,clear sky,-46.2817,169.8464,Kaitangata Motor Camp
146,Arlit,NE,59.59,clear sky,18.7369,7.3853,Case de Passage De la Prefecture
147,Mahon,ES,51.8,fog,39.8885,4.2658,ARTIEM Capri
148,Morgan City,US,48.99,clear sky,29.6994,-91.2068,Hampton Inn & Suites Morgan City
149,Zaysan,KZ,17.28,overcast clouds,47.4667,84.8667,Rahat Hotel
150,Ribeira Grande,PT,55.2,overcast clouds,38.5167,-28.7,Quinta da Meia Eira
151,Samarai,PG,84.27,overcast clouds,-10.6167,150.6667,Nuli Sapi
152,Chor,PK,58.73,clear sky,25.5167,69.7667,Asad U Bajeer Hotel
153,Parakou,BJ,73.54,few clouds,9.3372,2.6303,Benin Metropole Hotel
155,Moree,AU,91.4,scattered clouds,-29.4667,149.85,Molika Springs Motel
156,Hami,CN,28.58,scattered clouds,42.8,93.45,Laoyutang Resort
157,Bambanglipuro,ID,83.32,overcast clouds,-7.95,110.2833,Puri Brata
158,Illapel,CL,67.96,clear sky,-31.6308,-71.1653,Hotel Londres
159,Marawi,PH,82.0,clear sky,7.9986,124.2928,Derogongan Residence
160,Castro,BR,69.08,moderate rain,-24.7911,-50.0119,CHACARA BAILLY
161,Ust-Uda,RU,22.91,overcast clouds,54.1742,103.0304,Gostinitsa Ust'-Uda Shans
162,Berbera,SO,70.9,scattered clouds,10.4396,45.0143,IBCO REAL ESTATE PROPERTY
163,Rincon De La Victoria,ES,57.0,clear sky,36.7172,-4.2758,Hotel Elimar
164,Muros,ES,53.01,clear sky,42.7762,-9.0603,Apartment Av. Castelao
166,Vardo,NO,29.37,overcast clouds,70.3705,31.1107,Vardø Hotel AS
167,Acapulco,MX,80.6,few clouds,16.8634,-99.8901,HS Hotsson Smart Acapulco
168,Lufilufi,WS,80.6,overcast clouds,-13.8745,-171.5986,Leuaina Beach Resort and Spa
169,Pangkalanbuun,ID,81.81,light rain,-2.6833,111.6167,Grand Kecubung Hotel
170,Magdalena,PH,82.99,few clouds,14.1999,121.429,Samparada & Gestiada Residences
172,Cidreira,BR,76.17,moderate rain,-30.1811,-50.2056,Hotel Castelo
174,Plouzane,FR,48.2,overcast clouds,48.3833,-4.6167,Lymina
176,San Alberto,CO,82.33,overcast clouds,7.7611,-73.3922,Hotel San Alberto Plaza
177,Bilibino,RU,-6.54,overcast clouds,68.0546,166.4372,Gostinitsa Severyanka
178,Marsa Matruh,EG,60.8,scattered clouds,31.3525,27.2453,Beau Site
179,Quatre Cocos,MU,77.0,light rain,-20.2078,57.7625,Emeraude Beach Attitude Hotel
180,Ballina,AU,84.2,few clouds,-28.8667,153.5667,Ramada Hotel & Suites by Wyndham Ballina Byron
182,Eureka,US,48.0,overcast clouds,40.8021,-124.1637,Eureka Inn Trademark By Wyndham
183,Muncar,ID,79.21,overcast clouds,-8.4333,114.3333,Zaky Homestay
184,Lagoa Nova,BR,68.99,overcast clouds,-6.1,-36.4833,Pousada Galvão
185,Kloulklubed,PW,86.0,broken clouds,7.0419,134.2556,Storyboard Beach Resort
186,Lagoa,PT,54.48,overcast clouds,39.05,-27.9833,Casa Das Faias
187,Cabo San Lucas,MX,69.01,few clouds,22.8909,-109.9124,Hotel Tesoro Los Cabos
188,Naze,JP,64.4,scattered clouds,28.3667,129.4833,奄美ポートタワーホテル
189,Tasiilaq,GL,18.72,broken clouds,65.6145,-37.6368,The Red House
190,Fare,PF,75.34,light rain,-16.7,-151.0167,Maitai Lapita Village Huahine
191,Port Macquarie,AU,84.99,clear sky,-31.4333,152.9167,Rydges Port Macquarie
192,Montevideo,UY,71.01,moderate rain,-34.8335,-56.1674,KOLPING Hotel
194,Sechura,PE,74.98,scattered clouds,-5.5569,-80.8222,Hospedaje Costa Bella
195,La Ronge,CA,5.0,overcast clouds,55.1001,-105.2842,Northland Motor Hotel
196,Tiksi,RU,-25.67,overcast clouds,71.6872,128.8694,Arktika
197,Salym,RU,3.18,overcast clouds,60.0625,71.4789,Shinomontazh
198,Tahe,CN,-14.06,clear sky,52.3333,124.7333,塔河宾馆
199,Pemberton,CA,34.0,overcast clouds,50.3164,-122.8027,Pemberton Valley Lodge
200,Ungheni,MD,36.0,light rain,47.2042,27.7958,Apartament
201,Muroto,JP,48.2,scattered clouds,33.2833,134.15,Oota Ryokan
202,San Quintin,MX,60.67,scattered clouds,30.4833,-115.95,Old Mill Hotel
203,Fairbanks,US,-5.8,light snow,64.8378,-147.7164,Westmark Fairbanks Hotel & Conference Center
204,Boali,CF,73.4,few clouds,4.8005,18.1275,Auberge des Cocotiers Boali poste
205,Kurumkan,RU,-6.21,light snow,54.3,110.3,Ilikchin
206,Viedma,AR,66.0,scattered clouds,-40.8135,-62.9967,Hotel Cristal
208,Huangpi,CN,53.6,broken clouds,30.8845,114.3779,Xinxing Lidu Hotel
209,Mlyniv,UA,39.0,overcast clouds,50.50899999999999,25.6168,Баня Сауна Млинів. Сауна Млинов. Баня Сауна Дубно.
210,Craig,US,28.4,light snow,40.5153,-107.5464,Candlewood Suites Craig-Northwest
211,Grand Gaube,MU,75.99,clear sky,-20.0064,57.6608,Veranda Paul et Virginie Hotel & Spa
212,Port Lincoln,AU,61.81,moderate rain,-34.7333,135.8667,Port Lincoln Hotel
213,Bambous Virieux,MU,77.0,moderate rain,-20.3428,57.7575,Casa Tia Villa
214,Ugoofaaru,MV,81.27,scattered clouds,5.6667,73.0,Ungoofaaru Inn
215,Nurmijarvi,FI,5.0,clear sky,60.4641,24.8073,Taavi Vartia Tuotannot
216,Payo,ID,76.57,overcast clouds,-3.7508,103.6372,Mess keban agung
217,Comodoro Rivadavia,AR,64.4,clear sky,-45.8667,-67.5,Austral Hotel
218,Vada,NL,45.0,broken clouds,51.97,5.6667,Fletcher Hotel-Restaurant De Wageningsche Berg
219,Isangel,VU,83.57,overcast clouds,-19.55,169.2667,Volcano Sea View Tree House
220,Zhigansk,RU,-41.33,scattered clouds,66.7697,123.3711,Gostinichnyy Kompleks Aylgy
221,Mogadishu,SO,75.43,few clouds,2.0371,45.3438,Hotel Juba
222,Martapura,ID,80.6,scattered clouds,-3.4167,114.85,Montana Hotel Syariah
223,Labuhan,ID,78.76,light rain,-6.8844,112.2051,PT PPI Lamongan Tambak C
224,Sohag,EG,55.4,clear sky,26.557,31.6948,Civil Registry - Sohag 1
225,Kuchinarai,TH,80.01,clear sky,16.541,104.05,โรงแรมแสงชัย
226,Barra Do Garcas,BR,75.94,overcast clouds,-15.89,-52.2567,Hotel Pousada Tropical
227,Boras,SE,18.0,scattered clouds,57.721000000000004,12.9401,Scandic Plaza Borås
228,Kupang,ID,77.0,broken clouds,-10.1667,123.5833,Hotel On The Rock by Prasanthi
229,Yulara,AU,93.2,scattered clouds,-25.2406,130.9889,Desert Gardens Hotel - Ayers Rock Resort
230,Victoria,HK,73.0,clear sky,22.2855,114.1577,Mini Hotel Central
231,Shingu,JP,48.2,broken clouds,33.7333,135.9833,Shingu UI Hotel
232,Svetlogorsk,BY,33.06,light snow,52.6333,29.7333,Hotel Svetlogorsk JBIK
233,Conceicao Da Barra,BR,76.96,scattered clouds,-18.5933,-39.7322,Cricaré Praia Hotel
234,Hermanus,ZA,61.0,broken clouds,-34.4187,19.2345,Misty Waves Boutique Hotel
235,Monster,NL,46.99,scattered clouds,52.0258,4.175,Vakantiepark Kijkduin
236,Dali,CN,51.49,clear sky,25.7,100.1833,Dali Travelling With Hostel
237,Nipawin,CA,6.8,broken clouds,53.3668,-104.0009,Tobin Lake Motel
238,La Primavera,CO,84.36,clear sky,5.4906,-70.4092,La Riviera Hotel Colonial
239,Namatanai,PG,85.1,light rain,-3.6667,152.4333,Namatanai Hotel
240,Guerrero Negro,MX,62.71,overcast clouds,27.9769,-114.0611,"Casa Laguna, Bed & Breakfast"
241,Joshimath,IN,38.79,overcast clouds,30.5667,79.5667,Shivalik Camps & Resort
242,North Platte,US,48.2,scattered clouds,41.1239,-100.7654,Holiday Inn Express & Suites North Platte
243,Grand-Santi,GF,73.92,overcast clouds,4.25,-54.3833,Hotel La Villa Couacou
244,Sorland,NO,35.38,overcast clouds,67.667,12.6934,Sjybrygga fiskecamp
245,Lichuan,CN,41.02,light rain,30.3,108.85,Yicheng Hotel
246,Shache,CN,23.95,clear sky,38.4167,77.2406,Delong Hotel
248,Masuda,JP,48.2,scattered clouds,34.6667,131.85,Masuda Green Hotel Morris
249,Paterno,IT,53.01,clear sky,37.571,14.9027,Il Conte Dell'Etna
250,Mangan,IN,56.86,clear sky,27.5167,88.5333,Hotel Mout View
251,Estepona,ES,59.0,broken clouds,36.4276,-5.1459,H10 Estepona Palace
252,Hambantota,LK,77.0,light rain,6.1241,81.1185,Bungalow 63
253,Sterlibashevo,RU,29.05,overcast clouds,53.4376,55.2578,"Okhotnich'ye Khozyaystvo ""Bober"""
254,Kahului,US,68.0,moderate rain,20.8947,-156.47,Maui Seaside Hotel
255,Amos,CA,14.0,clear sky,48.5669,-78.1162,"Amosphère, complexe hôtelier"
256,Cabatuan,PH,80.44,broken clouds,10.8794,122.486,ROREM'S BOARDING HOUSE
257,Kandrian,PG,86.43,light rain,-6.2167,149.55,Kandrian Station
258,Ulladulla,AU,82.4,few clouds,-35.35,150.4667,Sandpiper Motel
259,Pio Ix,BR,74.62,scattered clouds,-6.8375,-40.5792,Hotel Central
260,Geraldton,AU,75.2,overcast clouds,-28.7667,114.6,Broadwater Mariner Resort
261,San Patricio,US,66.2,broken clouds,28.017,-97.5169,"Motel 6 Sinton, TX"
262,Bathsheba,BB,78.8,scattered clouds,13.2167,-59.5167,Atlantis Hotel
263,Tevriz,RU,3.94,overcast clouds,57.50899999999999,72.4042,Postoyalyy Dvor
264,Odienne,CI,72.03,clear sky,9.51,-7.5692,Oustaz Vame DIAKITE
265,Fort Nelson,CA,-7.6,light snow,58.8053,-122.7002,The Fort Nelson Hotel
266,Trelew,AR,71.06,overcast clouds,-43.248999999999995,-65.3051,Hotel Touring Club
267,Longyearbyen,SJ,23.0,light snow,78.2186,15.6401,"Radisson Blu Polar Hotel, Spitsbergen"
269,Steinbach,DE,48.99,light rain,50.1667,8.5667,Mercure Hotel Frankfurt Eschborn Helfmann Park
270,Lakselv,NO,26.6,light snow,70.0513,24.9718,Lakselv Hotel
271,Osakarovka,KZ,19.02,overcast clouds,50.565,72.5692,Motel' Osakarovka
273,Kalmunai,LK,76.69,broken clouds,7.4167,81.8167,VS Villa
274,Fez,MA,53.6,clear sky,34.0372,-4.9998,Hotel Mounia Fès
275,Lakatoro,VU,85.19,overcast clouds,-16.0999,167.4164,Lakatoro Palm Lodge
276,Abilene,US,71.6,clear sky,32.4487,-99.7331,La Quinta Inn by Wyndham Abilene
277,Bull Savanna,JM,69.01,clear sky,17.8868,-77.5902,Big Red's
278,Parrsboro,CA,39.0,overcast clouds,45.4001,-64.332,Gillespie House Inn
280,Boyuibe,BO,65.3,overcast clouds,-20.4167,-63.2833,Residencial Eluzai
281,Magaria,NE,65.28,clear sky,12.9983,8.9099,Chez Honorable Chapiou
282,Taltal,CL,65.8,scattered clouds,-25.4,-70.4833,Residencial Karime
283,Great Yarmouth,GB,39.2,scattered clouds,52.6083,1.7305,Comfort Hotel Great Yarmouth
284,Pingliang,CN,35.78,overcast clouds,35.5392,106.6861,North Gate Hostel
285,Chaihe,CN,-5.39,few clouds,44.7667,129.7,Fengyuan Hotel
286,Genhe,CN,-18.85,clear sky,50.7833,121.5167,Companionship Hotel
287,Inuvik,CA,-36.4,few clouds,68.3499,-133.7218,Nova Inn Inuvik
288,Zhangjiakou,CN,23.76,clear sky,40.81,114.8794,Shell Zhangjiakou City Qiaodong District Ginza Hotel
289,Itupiranga,BR,74.91,clear sky,-5.1347,-49.3267,Hotel Panorama
290,Newport,GB,42.01,clear sky,51.5877,-2.9984,ibis budget Newport
292,Sebinkarahisar,TR,31.71,overcast clouds,40.2883,38.4236,Sebinkarahisar Ogretmenevi
293,Bay Roberts,CA,48.2,mist,47.5999,-53.2648,Stonewall Inn
294,Ancud,CL,59.0,clear sky,-41.8697,-73.8203,Hotel Arena Gruesa
295,La Macarena,CO,75.61,few clouds,2.1837,-73.7849,Casa Hotel Real
296,Riyadh,SA,60.8,clear sky,24.6877,46.7219,InterContinental Riyadh
297,Zurrieq,MT,57.0,few clouds,35.8311,14.4742,Ta'Bertu Guest House
298,Lompoc,US,53.6,clear sky,34.6391,-120.4579,Holiday Inn Express Lompoc
299,Torrevieja,ES,53.01,overcast clouds,37.9787,-0.6822,Hotel Fontana Plaza
300,Mehamn,NO,29.1,light snow,71.0357,27.8492,Mehamn Arctic Hotel AS
301,Muli,MV,81.59,moderate rain,2.9167,73.5667,Medhufushi Island Resort
302,Santa Maria Da Vitoria,BR,70.54,scattered clouds,-13.3947,-44.1886,Pousada Rio Current
303,Skjervoy,NO,33.53,overcast clouds,70.0311,20.9714,Skjervøy Byggeservice AS
304,San Carlos De Bariloche,AR,68.0,clear sky,-41.1456,-71.3082,Hotel Patagonia
305,Kokubu,JP,51.8,scattered clouds,31.7333,130.7667,Hotel Kyocera
306,Port Hardy,CA,41.0,light rain,50.6996,-127.4199,Airport Inn
307,Chumikan,RU,-19.88,clear sky,54.7183,135.315,Fortuna
308,Buncrana,IE,42.85,overcast clouds,55.1333,-7.45,Inishowen Gateway Hotel
309,Banjarmasin,ID,80.6,scattered clouds,-3.3244,114.59100000000001,Swiss-Belhotel Borneo Banjarmasin
310,Manono,CD,68.18,few clouds,-7.3,27.4167,Hotel hewa bora
311,Broken Hill,AU,87.8,overcast clouds,-31.95,141.4333,Royal Exchange Hotel
312,Peru,US,19.99,clear sky,40.7537,-86.0689,Cole Porter Inn
313,Waikuku,NZ,63.0,broken clouds,-43.3,172.6833,Rivendell Respite
314,Mayo,US,39.2,few clouds,38.8876,-76.5119,Resorts Resource Group International
315,Novomichurinsk,RU,33.01,snow,54.0384,39.7479,"The recreation center ""Green Lake"""
316,Mambajao,PH,81.01,few clouds,9.2504,124.7156,SomeWhere Else boutique resort
317,Ambilobe,MG,74.52,overcast clouds,-13.2,49.05,Hôtel & Restaurant DIANA Ambilobe
318,Yar-Sale,RU,-6.05,overcast clouds,66.8333,70.8333,Yalemd
319,Blackwater,AU,86.77,broken clouds,-23.5833,148.8833,Blackwater Motor Inn
320,Ishimbay,RU,28.4,light snow,53.4545,56.0415,Bashneft
321,Tula,RU,28.6,overcast clouds,54.2044,37.6111,София
322,Estevan,CA,1.4,clear sky,49.1334,-102.9842,"Motel 6 Estevan, SK"
323,Tottori,JP,48.2,scattered clouds,35.5,134.2333,Hotel Monarque Tottori
325,Laguna,US,53.6,overcast clouds,38.421,-121.4238,Holiday Inn Express & Suites Elk Grove Central - Hwy 99
326,Storforshei,NO,6.01,scattered clouds,66.4043,14.5233,Skogly overnatting (Stengt/closed)
327,Chuy,UY,67.78,overcast clouds,-33.6971,-53.4616,Nuevo Hotel Plaza
328,Coquimbo,CL,59.0,few clouds,-29.9533,-71.3436,Hotel San Juan
329,Roma,US,27.0,overcast clouds,43.2128,-75.4557,Wingate By Wyndham Rome
331,Nouadhibou,MR,63.95,overcast clouds,20.930999999999997,-17.0347,El Medina
333,Mar Del Plata,AR,66.2,scattered clouds,-38.0023,-57.5575,Gran Hotel Mar del Plata
334,Ixtapa,MX,71.01,clear sky,20.7,-105.2,Container Inn Puerto Vallarta
335,Mount Isa,AU,95.0,scattered clouds,-20.7333,139.5,ibis Styles Mt Isa Verona
336,Hithadhoo,MV,82.71,overcast clouds,-0.6,73.0833,Scoop Guest House
337,Matara,LK,75.76,light rain,5.9485,80.5353,Amaloh Boutique Resort
338,Mwinilunga,ZM,61.25,overcast clouds,-11.7358,24.4293,Kwakuwahi Lodge
340,Waddan,LY,48.99,clear sky,29.1614,16.139,محل الشريف محمد العايب
342,Ajaccio,FR,46.4,clear sky,42.0,8.9167,Sole E Monte
343,Middelburg,ZA,58.84,clear sky,-25.7751,29.4648,Oregon Place Guest House
344,Maiduguri,NG,66.0,scattered clouds,11.8464,13.1603,College of Nursing & Midwifery Female's Hostel
345,Denia,ES,57.99,overcast clouds,38.8408,0.1057,Hotel Port Dénia
346,Porbandar,IN,62.6,haze,21.6422,69.6093,Lords Inn Porbandar
347,Vacaville,US,51.8,scattered clouds,38.3566,-121.9877,Hampton Inn & Suites Vacaville-Napa Valley
348,Coihaique,CL,68.0,clear sky,-45.5752,-72.0662,Diego De Almagro Coyhaique
349,Havelock,US,42.01,clear sky,34.8791,-76.9013,Sherwood Motel
350,Inta,RU,4.91,light snow,66.0317,60.1659,Apartments in Inta city
351,Betare Oya,CM,64.45,few clouds,5.6,14.0833,Auberge Tembina Betaré Oya
352,Barwadih,IN,56.88,clear sky,23.8333,84.1167,Forest Rest House
354,San Julian,MX,62.76,broken clouds,21.0167,-102.1667,La Nueva España
356,Kirkwall,GB,33.8,few clouds,58.9848,-2.9587,Ayre Hotel
357,Finschhafen,PG,86.54,overcast clouds,-6.6024,147.8681,Cossam Guest House
358,Colwyn Bay,GB,45.0,light rain,53.2948,-3.7267,Bryn Woodlands House
359,Kvarkeno,RU,33.71,overcast clouds,52.0833,59.725,"Ooo ""Kvarkeno"""
360,Meadow Lake,US,57.99,broken clouds,34.8014,-106.5436,JKL Inc. R.V Park and Storage
361,Mozhga,RU,10.83,overcast clouds,56.4447,52.2276,Mini Hotel Veshnyaki
362,Grindavik,IS,35.6,clear sky,63.8424,-22.4338,Northern Light Inn & Max's Restaurant
364,Ukiah,US,46.4,scattered clouds,39.1502,-123.2078,Hampton Inn Ukiah
365,Natal,BR,80.6,scattered clouds,-5.795,-35.2094,Villa Park Hotel | Natal
366,Biltine,TD,67.15,broken clouds,14.5333,20.9167,Hôtel Trois Étoiles de Biltine
367,Shimoda,JP,50.0,few clouds,34.6667,138.95,Shimoda Tokyu Hotel
368,Husavik,IS,15.8,clear sky,66.0449,-17.3389,Bjarnabúð
369,Samandag,TR,50.0,scattered clouds,36.0842,35.9771,Anadolu Palace Hotel
370,Englewood,US,45.0,light rain,39.6478,-104.9878,InTown Suites Extended Stay Denver CO - Englewood
371,Itarema,BR,79.34,overcast clouds,-2.9248,-39.9167,"Sea Lounge! Bar, Club & Restaurant"
372,Sinnamary,GF,78.06,overcast clouds,5.3833,-52.95,ALETHEIA Appartement Sinnamary
373,Birin,NP,50.05,clear sky,26.8865,88.0718,Sangam hotel and lodge
374,Dekernes,EG,64.4,few clouds,31.0876,31.595,زكريا عبد الفتاح سليم
375,Oldebroek,NL,46.0,overcast clouds,52.445,5.9014,Elburg Hotel & Stadscafé the Tapperij
376,Petatlan,MX,72.64,clear sky,17.5167,-101.2667,Hotel California Petatlán
377,Oksfjord,NO,28.99,light snow,70.2396,22.3479,Bobo
378,Puerto Del Rosario,ES,60.8,clear sky,28.5004,-13.8627,Hotel JM Puerto del Rosario
379,Vao,NC,78.69,few clouds,-22.6667,167.4833,Hotel Kou-Bugny
380,Bonga,ET,60.21,clear sky,7.2833,36.2333,Noona Noona Hotel
381,Vilnius,LT,24.01,overcast clouds,54.6892,25.2798,Amberton Cathedral Square Hotel Vilnius
382,Tura,IN,63.5,clear sky,25.5198,90.2201,Hotel RIKMAN Continental
383,Bosaso,SO,68.02,clear sky,11.2842,49.1816,Red Sea Hotel
384,Huarmey,PE,70.07,broken clouds,-10.0681,-78.1522,Hotel Miramar
385,Mercedes,AR,68.0,broken clouds,-34.6515,-59.4307,Posada del Inti Centro
386,Roald,NO,21.2,clear sky,62.5833,6.1333,Flem Cabins
387,Izberbash,RU,37.4,fog,42.5696,47.8645,Ramina
388,Tommot,RU,-19.79,overcast clouds,58.9564,126.2925,Gostinitsa Tommot
389,Sur,OM,65.28,clear sky,22.5667,59.5289,Sur Plaza Hotel
390,Imbituba,BR,80.6,broken clouds,-28.24,-48.6703,Praia Hotel Imbituba
391,Codrington,AU,79.66,moderate rain,-38.2667,141.9667,Codrington Gardens Bed And Breakfast
392,Jasper,US,51.8,clear sky,37.2001,-94.3502,Guest House Motel
393,Bafra,TR,39.2,clear sky,41.5678,35.9069,Sevgi Otel
394,Betamcherla,IN,65.71,scattered clouds,15.4667,78.1667,SHAFI SLAB POLISHING INDUSTRIES
395,Nelson Bay,AU,88.0,clear sky,-32.7167,152.15,Mantra Nelson Bay
396,Kikwit,CD,70.43,overcast clouds,-5.041,18.8162,Guest L'Amour
399,Thessalon,CA,17.6,clear sky,46.2501,-83.5666,Carolyn Beach Inn & Restaurant
400,Aklavik,CA,-36.4,few clouds,68.2191,-135.0107,Aklavik Inn
401,Yazman,PK,53.49,broken clouds,29.1212,71.7446,Jamal sons showroom
402,Hirara,JP,69.8,scattered clouds,24.8,125.2833,Hotel Atoll Emerald Miyakojima
403,Zanjan,IR,34.63,clear sky,36.6736,48.4787,Qasr Hotel
404,Nurota,UZ,39.2,mist,40.5614,65.6886,Guest House Ruslan Nurata & Tours
406,Muisne,EC,77.56,light rain,0.6,-80.0333,Quinta Samay
408,Port-Gentil,GA,81.23,overcast clouds,-0.7193,8.7815,Fengshui Residence
409,Neuquen,AR,68.0,clear sky,-38.9516,-68.0591,Hotel del Comahue
410,Dawei,MM,83.62,clear sky,14.0833,98.2,Hotel Dawei
411,Pustoshka,RU,12.69,overcast clouds,56.3355,29.369,Yubileinaya Hotel
413,At-Bashi,KG,6.58,clear sky,41.1702,75.8106,Hostel At-Bashy
414,Iwaki,JP,48.99,clear sky,37.05,140.8833,Toyoko Inn Iwaki Ekimae
415,Aviles,ES,51.01,clear sky,43.5547,-5.9248,Hotel NH Collection Palacio de Avilés
417,Nicoya,CR,77.0,clear sky,10.1483,-85.45200000000001,Guayacan Real
418,Kensington,AU,81.0,scattered clouds,-33.9167,151.2167,Stamford Plaza Sydney Airport Hotel & Conference Centre
419,Bonavista,CA,46.0,overcast clouds,48.6499,-53.1147,Abbott's Bed & Breakfast
420,Orocue,CO,84.83,overcast clouds,4.7912,-71.3354,Hotel Brisas de San Miguel
421,Kharp,RU,-4.59,few clouds,66.8014,65.8081,"Hotel ""Sob"""
422,West Plains,US,39.99,clear sky,36.7281,-91.8524,West Plains Motel
423,Dongsheng,CN,22.39,clear sky,39.8161,109.9776,Crowne Plaza Ordos
424,San Ignacio,BZ,66.0,clear sky,17.1561,-89.0714,Rainforest Haven Inn
425,Khani,GE,37.4,clear sky,41.9563,42.9566,კურორტი ზეკარი/Resort Zekari
426,Amahai,ID,86.88,overcast clouds,-3.3333,128.9167,HOTEL ISABELA
427,Angoche,MZ,76.84,light rain,-16.2325,39.9086,Guest House HESADA
428,Budogoshch,RU,19.26,snow,59.2816,32.4707,Piligrim
429,Jacksonville,US,46.4,few clouds,30.3322,-81.6556,Hyatt Regency Jacksonville Riverfront
430,Channel-Port Aux Basques,CA,39.34,light rain,47.5702,-59.1367,St. Christopher's Hotel
431,Kulhudhuffushi,MV,81.7,scattered clouds,6.6221,73.07,Haajy Guest House 1
432,Qesarya,IL,60.01,clear sky,32.5189,34.9046,Dan Caesarea
434,Caetite,BR,67.84,overcast clouds,-14.0694,-42.475,Hotel Porto do Sol
435,Goderich,CA,14.0,clear sky,43.7501,-81.7165,Harmony Inn
436,Saldanha,ZA,60.8,clear sky,-33.0117,17.9442,Blue Bay Lodge
437,Sistranda,NO,15.8,few clouds,63.7256,8.834,Hotell Frøya
438,San Luis,AR,64.6,clear sky,-33.295,-66.3356,Huarpes Hotel
439,Hangu,CN,37.4,clear sky,39.2489,117.7892,Chongli Xuexiang Family Express Inn
440,Pisco,PE,71.6,clear sky,-13.7,-76.2167,Hotel San Isidro Oficial
441,Shangrao,CN,54.99,overcast clouds,28.4532,117.9686,Boyue boutique Hotel
442,Paamiut,GL,9.03,clear sky,61.994,-49.6678,Yeet Hotel
443,Chiautla,MX,66.2,clear sky,19.5333,-98.8833,Xcoco Inn
444,Sauda,NO,19.0,clear sky,59.6506,6.3542,Klover Hotel
445,Galle,LK,76.73,scattered clouds,6.0367,80.217,Amangalla
446,Saint Anthony,US,32.0,light snow,45.0205,-93.21799999999999,Holiday Inn Express Roseville-St. Paul
447,Las Palmas,ES,60.8,clear sky,28.4204,-14.0131,Casillas De Morales 59.
448,Haines Junction,CA,-18.4,overcast clouds,60.7522,-137.5108,Parkside Inn
449,Charagua,BO,65.86,overcast clouds,-19.8,-63.2167,Residencial Luismar
452,Stepnoye,RU,34.0,light rain,51.4,46.8667,"Hotel Valentine, Haute-Garonne"
453,Bondoukou,CI,71.85,clear sky,8.0333,-2.8,Prestige Hotel
454,Cairns,AU,90.0,overcast clouds,-16.9167,145.7667,Mantra Trilogy Cairns
455,Owatonna,US,30.99,scattered clouds,44.0839,-93.226,Executive Inn Owatonna
456,Springbok,ZA,60.28,clear sky,-29.6643,17.8865,Undulata Country Lodge
457,Ternate,ID,84.04,overcast clouds,0.8,127.4,Grand Dafam Bela Ternate
458,Lasa,IT,37.99,overcast clouds,46.6166,10.7002,Pension Feldgärtenhof
459,Cukai,MY,77.0,scattered clouds,4.25,103.4167,OYO 90038 Dalyla Inn Chalet
460,Hihya,EG,62.6,scattered clouds,30.6713,31.588,مضيفة المركز
461,Lambarene,GA,76.17,overcast clouds,-0.7001,10.2406,Le Refuge
462,Constitucion,CL,64.85,clear sky,-35.3333,-72.4167,Hotel Boutique Las Azucenas
463,Madhupur,IN,58.53,clear sky,24.25,86.65,Hotel Kumar International
464,Ust-Ishim,RU,2.86,broken clouds,57.6935,71.1665,"Velichko T.p., Gostinitsa"
465,Tocoa,HN,65.01,broken clouds,15.6833,-86.0,GRAN HOTEL SANABRIA
466,Beringovskiy,RU,2.05,overcast clouds,63.05,179.3167,Beringgorski
467,Ozark,US,46.99,broken clouds,37.0209,-93.206,Americas Best Value Inn Ozark Springfield
468,Izumo,JP,46.4,broken clouds,35.3667,132.7667,Toyoko-Inn Izumoshi ekimae
469,Felanitx,ES,53.6,mist,39.4696,3.1483,Petit Hotel Hostatgeria Sant Salvador
470,Srisailam,IN,63.57,clear sky,16.0833,78.8667,Vasavi Satram
471,Santiago Del Estero,AR,70.23,broken clouds,-27.7951,-64.2615,Hotel Urbano
473,Karwar,IN,73.53,clear sky,14.8,74.1333,Netalco Connects
474,Deputatskiy,RU,-25.28,overcast clouds,69.3,139.9,Baza Otdykha
475,Norfolk,US,32.0,overcast clouds,42.1668,-71.2495,Residence Inn by Marriott Boston Norwood/Canton
476,Weinan,CN,44.01,clear sky,34.5036,109.5089,Thank Inn Chain Hotel shanxi weinan linwei district jiefang road
477,Northam,GB,42.01,clear sky,51.0333,-4.2167,Durrant House Hotel
478,Rantepao,ID,76.82,overcast clouds,-2.9701,119.8978,Hotel Luta Resort
479,Talcahuano,CL,55.4,fog,-36.7167,-73.1167,Hotel Terramar
480,Puerto Narino,CO,77.0,few clouds,-3.7703,-70.3831,Eware Refugio Amazonico
481,Khairpur Nathan Shah,PK,55.76,clear sky,27.0936,67.7337,Shoukat Hussain Hotal
482,Tupik,RU,-24.88,few clouds,54.4253,119.9327,Guest House Orkhideya
483,Beian,NO,15.8,few clouds,63.6559,9.5683,"Fjord-Fishing AS, Property & Housing Co."
484,Broome,US,28.0,overcast clouds,42.2506,-75.833,Chenango Valley State Park
485,Portoferraio,IT,57.99,overcast clouds,42.8115,10.3146,Hotel Villa Ombrosa
486,Ciudad Bolivar,VE,80.17,scattered clouds,8.1222,-63.5497,Hotel Edi
488,Muslyumovo,RU,18.99,light snow,55.3033,53.1947,"""Kunakkhana"""
489,Yaring,TH,78.8,few clouds,6.8662,101.3689,สถานที่จัดงานแต่ง SOFEE & DORN
490,Richards Bay,ZA,74.05,overcast clouds,-28.783,32.0377,BON Hotel Waterfront Richards Bay
491,Villa Carlos Paz,AR,63.0,clear sky,-31.4241,-64.4978,Monte Carlo
493,Ewa Beach,US,75.2,light rain,21.3156,-158.0072,Base Lodging
494,Benguela,AO,73.58,clear sky,-12.5763,13.4055,Hotel Praia Morena
495,Jalu,LY,53.82,clear sky,29.0331,21.5482,صاحبة الفخامة
496,Nortelandia,BR,73.24,broken clouds,-14.4547,-56.8028,Hotel Karysmã
497,Hay River,CA,-13.0,overcast clouds,60.8156,-115.7999,Ptarmigan Inn Hotels
498,Puri,IN,62.6,mist,19.8,85.85,OYO 1577 Hotel Shree Hari Grand
499,Dudinka,RU,-13.47,overcast clouds,69.4058,86.1778,Hotel Viktoria
500,Whitianga,NZ,71.37,clear sky,-36.8333,175.7,Beachside Resort Whitianga
502,Deep River,CA,28.4,clear sky,46.1001,-77.4995,Deep River Motel
504,Knysna,ZA,60.8,clear sky,-34.0363,23.0471,Protea Hotel by Marriott Knysna Quays
506,Pandua,IN,59.0,mist,23.0833,88.2833,Marriage Registry Office Joypur Road
507,San Cristobal,VE,67.64,broken clouds,7.7669,-72.225,Pirineos
508,Imeni Vorovskogo,RU,30.2,light snow,55.7233,38.3414,"Snt ""Druzhba"""
509,Soledad,CO,77.0,few clouds,10.9184,-74.7646,Cartagena Marlin hostel
510,Victor Harbor,AU,66.2,moderate rain,-35.5667,138.6167,McCracken Country Club
512,Medea,DZ,51.31,overcast clouds,36.2642,2.7539,Hôtel M'Sallah
513,Santiago,CL,77.0,clear sky,-33.4569,-70.6483,Sheraton Santiago Hotel and Convention Center
514,Jieshi,CN,66.0,clear sky,22.8134,115.8257,Yuehai Hotel
515,Llanes,ES,57.99,broken clouds,43.4198,-4.7549,Hotel La Paz
516,Yenagoa,NG,77.77,clear sky,4.9247,6.2642,Aridolf Resort Wellness and Spa
517,Kyshtovka,RU,1.98,scattered clouds,56.555,76.6271,Uyutnaya Mini-Hotel
519,Sinazongwe,ZM,73.92,light rain,-17.2614,27.4618,Lakeview Lodge
521,Madison,US,36.0,clear sky,34.7334,-86.5667,Embassy Suites by Hilton Huntsville Hotel & Spa
523,Esil,KZ,25.03,light snow,51.9556,66.4042,Egorkino Hotel
525,Waingapu,ID,78.42,overcast clouds,-9.6567,120.2641,Pondok Wisata Elim
526,Rocha,UY,66.24,overcast clouds,-34.4833,-54.3333,Beleza Pura B&B
527,Valparaiso,CL,63.0,mist,-33.0393,-71.6273,Hotel Ultramar
528,Ceres,US,53.01,clear sky,37.5949,-120.9577,Howard Johnson by Wyndham Modesto Ceres
529,Guilin,CN,59.0,mist,25.2819,110.2864,Grand 0773 Hotel
530,Lukulu,ZM,64.17,overcast clouds,-14.3707,23.241999999999997,Ruth Guest House
531,Khorramshahr,IR,53.6,clear sky,30.4397,48.1664,دفتر نمایندگی شرکت بازاریابان ایرانیان زمینBIZ
532,Capaci,IT,62.6,clear sky,38.1711,13.2393,Hotel Sirenetta
534,Houma,US,48.99,clear sky,29.5958,-90.7195,Courtyard by Marriott Houma
536,Nefteyugansk,RU,5.0,light snow,61.0998,72.6035,Royal Plaza
537,Shahr-E Kord,IR,19.4,clear sky,32.3256,50.8644,Shahrekord Tourist Hotel
539,Katsuura,JP,53.6,few clouds,35.1333,140.3,Katsuura Hotel Mikazuki
540,Kaseda,JP,51.8,scattered clouds,31.4167,130.3167,Sun Stay Kaseda
542,Cap Malheureux,MU,75.99,clear sky,-19.9842,57.6142,Pereybere Hotel & Spa
543,Isiro,CD,67.71,few clouds,2.7739,27.616,Guest House Hewa Bora
545,Dickson,US,32.0,clear sky,36.077,-87.3878,East Hills Bed & Breakfast Inn
546,Nichinan,JP,59.0,few clouds,31.6,131.3667,Guest House Aki
547,Aberdeen,GB,36.0,light snow,57.1437,-2.0981,Premier Inn Aberdeen City Centre hotel
548,Ambon,ID,91.4,scattered clouds,-3.6954,128.1814,Swiss-Belhotel Ambon
549,Kapuskasing,CA,19.4,overcast clouds,49.4169,-82.4331,Park Inn Motel
550,Batemans Bay,AU,79.0,overcast clouds,-35.7167,150.1833,Batemans Bay Marina Resort
552,Balkhash,KZ,14.0,fog,46.843999999999994,74.9804,Family
553,Prince Rupert,CA,39.2,light rain,54.3161,-130.3201,Crest Hotel
554,Touros,BR,78.8,few clouds,-5.1989,-35.4608,INN NEW HORIZON
556,Muhos,FI,14.0,light snow,64.808,25.9931,Montta - active camping / campsite Montan
558,Caravelas,BR,75.88,scattered clouds,-17.7125,-39.2481,Pousada dos Navegantes
559,Kununurra,AU,78.8,broken clouds,-15.7667,128.7333,Hotel Kununurra
560,Abu Zabad,SD,74.25,scattered clouds,12.35,29.25,حامد محمد نور
561,Komsomolskiy,UZ,28.4,clear sky,40.4272,71.7189,Ikathouse
562,Vestmanna,FO,32.0,scattered clouds,62.1564,-7.1664,Budget Guesthouse Borgustova
563,Sioux Lookout,CA,28.4,overcast clouds,50.1001,-91.917,Knobby's Fly-In Camps
564,Pskov,RU,19.4,light snow,57.8136,28.3496,Zolotaya Naberezhnaya
565,San Mateo Del Mar,MX,73.62,clear sky,16.2,-95.0,
566,Rock Sound,BS,66.92,clear sky,24.9,-76.2,Rock Sound Club
567,Argelia,CO,67.64,light rain,2.2556,-77.2488,Hotel San Fernando Argelia
568,Aksu,CN,20.37,clear sky,41.1231,80.2644,Pudong Holiday Hotel
569,Santa Fe,AR,73.0,clear sky,-31.6333,-60.7,Conquistador Hotel
570,Aquidauana,BR,79.45,overcast clouds,-20.4711,-55.7872,HOTEL ARARAS
571,Mbuji-Mayi,CD,69.82,overcast clouds,-6.15,23.6,HOTEL METROPOLE DU KASAI
572,La Rioja,ES,48.2,mist,42.25,-2.5,Casa Concejos
573,Cocorit,MX,70.25,overcast clouds,27.5833,-109.9667,Kaba Motel
574,Fortuna Foothills,US,75.0,clear sky,32.6578,-114.4119,Fortuna De Oro RV Park
575,Aloleng,PH,81.52,clear sky,16.1307,119.7824,Agno Umbrella Rocks
576,Bushehr,IR,60.8,clear sky,28.9684,50.8385,Yas Hotel
577,Luancheng,CN,37.4,overcast clouds,37.8792,114.6517,Shell Hebei Shijiazhuang Luancheng Xinyuan Road Hotel
578,Zaltan,LY,60.22,clear sky,32.946999999999996,11.8665,زلطن الشرقية
579,Wattegama,LK,77.0,light rain,6.7989,81.4808,
580,Regina,CA,-2.2,few clouds,50.4501,-104.6178,Quality Hotel
581,Chabahar,IR,65.98,clear sky,25.2919,60.643,هتل گدروشیا
582,Pasighat,IN,65.34,broken clouds,28.0667,95.3333,Siang Guest House
583,Burshtyn,UA,39.4,overcast clouds,49.2587,24.6278,Suputnyk
584,Koungou,YT,78.8,overcast clouds,-12.7336,45.2042,Villa Netibor
585,Mount Gambier,AU,78.8,overcast clouds,-37.8333,140.7667,Commodore on the Park
586,Marzuq,YE,52.7,clear sky,14.4,46.4667,
587,Tateyama,JP,52.0,clear sky,34.9833,139.8667,Tateyama Seaside Hotel
588,Camacha,PT,53.6,scattered clouds,33.0833,-16.3333,Hotel Porto Santo & Spa
589,Batala,IN,51.8,broken clouds,31.8186,75.2028,Hotel Metro'z Bal'z
590,La Baule-Escoublac,FR,50.0,light rain,47.2922,-2.364,Hôtel Barrière Le Royal La Baule
591,Chilca,PE,75.99,light rain,-12.5211,-76.7372,Playa Punta Yaya - Las Salinas
592,Port Blair,IN,80.76,broken clouds,11.6667,92.75,Welcomhotel Bay Island Port Blair
593,Semme,FR,44.01,clear sky,46.1963,1.5007,Inter-Hotel Alexia
594,Cuamba,MZ,68.97,overcast clouds,-14.8031,36.5372,Hotel Vision
595,Vite,IN,63.7,clear sky,17.2833,74.55,Government Hostel
596,Durango,MX,61.18,broken clouds,24.8333,-104.8333,
597,Inverell,AU,90.0,few clouds,-29.7833,151.1167,Sapphire City Motor Inn
598,Ayan,RU,-21.17,overcast clouds,56.45,138.1667,Gostinitsa
599,Santa Rosa,PH,82.99,few clouds,14.3122,121.1114,Erlyn’s Sta Rosa City Home
600,Alcudia,ES,52.0,overcast clouds,39.8532,3.1214,Zafiro Tropic
601,Bandarbeyla,SO,70.29,clear sky,9.4942,50.8122,JABIR HOTEL
602,Rio Gallegos,AR,62.6,clear sky,-51.6226,-69.2181,Hotel Santa Cruz
603,Moussoro,TD,69.37,scattered clouds,13.6408,16.4901,Pharmacie alnadja Moussoro
604,Uzhur,RU,14.88,overcast clouds,55.3036,89.8339,"Gostinitsa ""Turist"""
605,Puerto El Triunfo,SV,69.8,clear sky,13.2833,-88.55,Hotel Jardin
606,Mazyr,BY,33.8,overcast clouds,52.0495,29.2456,Euro Mini-Hotel
607,Cayenne,GF,80.6,broken clouds,4.9333,-52.3333,Hôtel Le Dronmi
608,Caluquembe,AO,63.09,broken clouds,-13.7833,14.6833,
609,Bonnyville,CA,1.4,light snow,54.2668,-110.735,Best Western Bonnyville Inn & Suites
610,Calamar,CO,78.8,clear sky,10.2511,-74.9146,Hostal Katyalex
611,Sompeta,IN,68.72,clear sky,18.9333,84.6,బెంకిలి భైరొడమ్మ క్రికెట్ గ్రౌండ్
612,Zemio,CF,76.28,overcast clouds,5.0314,25.1361,OCHA Office
613,Kavaratti,IN,81.34,overcast clouds,10.5669,72.642,Hotels in Lakshadweep Islands
614,Hagere Hiywet,ET,56.44,few clouds,8.9833,37.85,Hot Springs Resort
615,Isla Vista,US,60.01,clear sky,34.4133,-119.861,Best Western Plus South Coast Inn
616,Ihosy,MG,69.22,overcast clouds,-22.4,46.1167,Tamana Hôtel
617,Bilgi,IN,64.58,clear sky,16.35,75.6167,Kenada Lodge
618,Mayor Pablo Lagerenza,PY,78.94,overcast clouds,-19.9309,-60.7718,
619,Buala,SB,81.12,overcast clouds,-8.145,159.5921,Maringe Lagoon Lodge
620,Conceicao Do Araguaia,BR,75.6,overcast clouds,-8.2578,-49.2647,Tarumã Tropical Hotel
621,Solnechnyy,RU,-15.81,few clouds,50.7214,136.6319,Hotel complex Pastoral
622,Slave Lake,CA,-9.4,broken clouds,55.2834,-114.76899999999999,Super 8 by Wyndham Slave Lake AB
623,Seddon,AU,84.2,light rain,-37.8068,144.8916,AKOM AT DOCKLANDS
624,Cockburn Town,TC,72.77,broken clouds,21.4612,-71.1419,Osprey Beach Hotel
625,Ankazoabo,MG,74.88,clear sky,-22.2833,44.5167,ENCEIN BUREAU CISCO
626,Usak,TR,41.22,clear sky,38.5,29.4167,
627,Jaru,BR,76.77,broken clouds,-10.4389,-62.4664,Hotel Paraná
628,San Pedro,PH,84.99,few clouds,14.35,121.0167,OYO 412 Viewfort Venue
629,Arcachon,FR,51.8,clear sky,44.5875,-1.0519,Hôtel All Suites Le Teich
630,Capitao Poco,BR,73.53,overcast clouds,-1.7464,-47.0594,Hotel New Tokyo
631,Kiruna,SE,15.8,clear sky,67.8557,20.2251,Camp Ripan
632,Russell,US,41.0,clear sky,32.3502,-85.1999,Macs
633,Male,MV,82.4,broken clouds,4.1748,73.5089,Hotel Octave Maldives
634,Kongolo,CD,68.99,overcast clouds,-5.3833,27.0,Hôtel Bouger Faire Bouger Rj Kanierra
635,Kitui,KE,60.94,clear sky,-1.367,38.0106,Heritage Bliss Hotel
636,Gagarin,RU,22.93,overcast clouds,55.5529,34.9954,Vostok
637,Mehran,IR,41.0,clear sky,33.1222,46.1646,بوتیک زنانه بهار
638,Sidi Ali,DZ,55.02,overcast clouds,36.0998,0.4206,
639,Kaeo,NZ,73.62,scattered clouds,-35.1,173.7833,Bushido Lodge
640,Seoul,KR,26.6,clear sky,37.5683,126.9778,Lotte Hotel Seoul
641,Taksimo,RU,-21.14,overcast clouds,56.3444,114.8794,"Gostinitsa ""Viktoriya"""
642,Veinticinco De Mayo,AR,68.0,broken clouds,-35.4323,-60.1727,Estancia La Rosada
643,Kelso,US,43.0,overcast clouds,46.1468,-122.9084,GuestHouse Kelso Longview
644,Ouango,CF,78.69,overcast clouds,4.3133,22.5552,
645,Zelenogorskiy,RU,19.4,light snow,55.0333,87.0,"Ooo Rts ""Renessans"""
646,Angamali,IN,73.4,mist,10.2,76.4,Quality Airport Hotel
647,Kyren,RU,20.08,overcast clouds,51.6828,102.1408,"Energetik, Pansionat Ooo ""Grand Baykal"""
648,Matoury,GF,80.6,broken clouds,4.8483,-52.3317,Hôtel La Marmotte
649,Sinop,TR,47.43,overcast clouds,41.7711,34.8709,
650,Semnan,IR,41.49,overcast clouds,35.5729,53.3971,Semnan Tourist Hotel
651,Ialibu,PG,68.36,scattered clouds,-6.2821,143.9935,Eastwood Guesthouse
652,Terra Roxa,BR,73.0,overcast clouds,-23.8557,-50.0314,
653,Estelle,US,53.01,broken clouds,29.8458,-90.1067,Ohio
654,Padang,ID,84.2,scattered clouds,-0.9492,100.3543,Mercure Padang
655,Ambulu,ID,83.68,broken clouds,-8.345,113.6058,Hotel Ambulu Jember
656,Gilgit,PK,27.84,overcast clouds,35.9221,74.3087,Tourist Hamlet Gilgit
657,Byron Bay,AU,84.2,few clouds,-28.65,153.6167,Backpackers Inn on the Beach
658,Ranong,TH,82.4,scattered clouds,9.9658,98.6348,Tinidee Hotel@Ranong
659,Palmer,US,32.0,overcast clouds,42.1584,-72.3287,Wedgewood Motel
660,Vila Velha,BR,78.8,scattered clouds,-20.3297,-40.2925,Hotel Vitória Palace
661,Hualmay,PE,70.84,overcast clouds,-11.0964,-77.6139,Hotel Villa Kitzia Huacho
662,Saravan,AM,30.2,few clouds,39.7196,45.6483,
663,Bonthe,SL,77.58,clear sky,7.5264,-12.505,Bonthe Holiday Village
664,Alofi,NU,80.6,light rain,-19.0595,-169.9187,Taloa Heights
665,Morogoro,TZ,73.4,broken clouds,-6.8167,37.6667,Nashera Hotel
666,Manavalakurichi,IN,80.6,haze,8.1333,77.3,Udaya Boys Hostel
667,Jilib,SO,69.28,clear sky,0.4883,42.7854,
668,Lubango,AO,62.56,overcast clouds,-14.9172,13.4925,Hotel Serra da Chela
669,Turukhansk,RU,-5.91,light snow,65.8167,87.9833,"ООО ""Туруханская пушнина"""
670,Nagato,JP,46.4,broken clouds,34.3833,131.2,いそう庵
671,Hecun,CN,42.44,overcast clouds,36.5333,114.1111,Yijia Hotel
672,Aksarka,RU,-7.46,overcast clouds,66.5606,67.7975,
